driver_name,latitude,longitude,address,status
test1,19.076,72.8777,Mumbai,Available
test2,22.7196,75.8577,Indore,Available
test3,18.5204,73.8567,Pune,Available
test4,28.367,79.4304,Bareilly,Available
test5,30.3165,78.0322,Dehradun,Available
