id,driverName,latitude,longitude,address,status
1,test1,19.076,72.8777,Mumbai,Available
2,test2,22.7196,75.8577,Indore,Available
3,test3,18.5204,73.8567,Pune,Available
4,test4,28.367,79.4304,Bareilly,Available
5,test5,30.3165,78.0322,Dehradun,Available
